"Date","Time","LatGPS","LonGPS","Alt","Roll","Pitch","Yaw","Letter","Conf.","Lat","Lon"
"Date","Time","LatGPS","LonGPS","Alt","Roll","Pitch","Yaw","Letter","Conf.","Lat","Lon"
"Date","Time","LatGPS","LonGPS","Alt","Roll","Pitch","Yaw","Letter","Conf.","Lat","Lon"
"Date","Time","LatGPS","LonGPS","Alt","Roll","Pitch","Yaw","Letter","Conf.","Lat","Lon"
"1970-01-01","01-00",0.0,0.0,-0.357,-0.012589474208652973,-0.028852103278040886,1.2534726858139038,"X",0.9999931,0,0
"Date","Time","LatGPS","LonGPS","Alt","Roll","Pitch","Yaw","Letter","Conf.","Lat","Lon"
"1970-01-01","01-00",0.0,0.0,-0.458,-0.01232707779854536,-0.028569914400577545,1.2589316368103027,"L",0.2725499,0,0
"1970-01-01","01-00",0.0,0.0,-0.519,-0.011593387462198734,-0.028022561222314835,1.2557373046875,"1",0.50791085,0,0
"1970-01-01","01-00",0.0,0.0,-0.357,-0.011499959044158459,-0.02801533415913582,1.2558412551879883,"X",0.99999547,0,0
"1970-01-01","01-00",0.0,0.0,-0.391,-0.01179586723446846,-0.028991451486945152,1.2561427354812622,"X",0.99995434,0,0
"1970-01-01","01-00",0.0,0.0,-0.413,-0.011979267001152039,-0.028765635564923286,1.2562373876571655,"X",0.99995625,0,0
"1970-01-01","01-00",0.0,0.0,-0.329,-0.011992513202130795,-0.028835570439696312,1.25589120388031,"X",0.9999995,0,0
"1970-01-01","01-00",0.0,0.0,-0.363,-0.01197142992168665,-0.02864578180015087,1.255798578262329,"X",0.99999964,0,0
"1970-01-01","01-00",0.0,0.0,-0.463,-0.012102308683097363,-0.02872220240533352,1.2557151317596436,"X",0.9999993,0,0
"1970-01-01","01-00",0.0,0.0,-0.34,-0.012084723450243473,-0.02870255336165428,1.2557601928710938,"X",0.9999988,0,0
"1970-01-01","01-00",0.0,0.0,-0.34,-0.01203330047428608,-0.02857847884297371,1.2559257745742798,"X",0.99996924,0,0
"1970-01-01","01-00",0.0,0.0,-0.234,-0.012095510959625244,-0.028589386492967606,1.2558773756027222,"X",0.99998784,0,0
"1970-01-01","01-00",0.0,0.0,-0.407,-0.01221655122935772,-0.02852245606482029,1.2557750940322876,"X",0.9999721,0,0
"1970-01-01","01-00",0.0,0.0,-0.441,-0.012136658653616905,-0.02842101827263832,1.2558050155639648,"X",0.99999225,0,0
"1970-01-01","01-00",0.0,0.0,-0.475,-0.012357877567410469,-0.028675278648734093,1.2559664249420166,"X",0.9999864,0,0
"1970-01-01","01-00",0.0,0.0,-0.117,-0.012462862767279148,-0.028671344742178917,1.2562673091888428,"X",0.9999573,0,0
"1970-01-01","01-00",0.0,0.0,-0.352,-0.012352809309959412,-0.02850179187953472,1.2560852766036987,"X",0.9960614,0,0
"Date","Time","LatGPS","LonGPS","Alt","Roll","Pitch","Yaw","Letter","Conf.","Lat","Lon"
"1970-01-01","01-00",0.0,0.0,-0.542,-0.013765976764261723,-0.029575025662779808,1.2640058994293213,"U",0.9477473,0,0
"Date","Time","LatGPS","LonGPS","Alt","Roll","Pitch","Yaw","Letter","Conf.","Lat","Lon"
"1970-01-01","01-00",0.0,0.0,-0.631,-0.012399635277688503,-0.028864547610282898,1.2390918731689453,"J",0.41064513,0,0
"1970-01-01","01-00",0.0,0.0,-0.631,-0.012297479435801506,-0.028742654249072075,1.2387555837631226,"X",0.99985325,0,0
"1970-01-01","01-00",0.0,0.0,-0.665,-0.012375560589134693,-0.02876998297870159,1.2387712001800537,"X",0.99987006,0,0
"1970-01-01","01-00",0.0,0.0,-0.575,-0.012531151995062828,-0.028594231233000755,1.2387267351150513,"X",0.9998023,0,0
"1970-01-01","01-00",0.0,0.0,-0.553,-0.012380770407617092,-0.0287244264036417,1.2385615110397339,"X",0.9998425,0,0
"1970-01-01","01-00",0.0,0.0,-0.665,-0.012339828535914421,-0.02869463339447975,1.2387267351150513,"X",0.9997224,0,0
"1970-01-01","01-00",0.0,0.0,-0.665,-0.01221572607755661,-0.028694994747638702,1.2386243343353271,"X",0.9998209,0,0
"1970-01-01","01-00",0.0,0.0,-0.86,-0.01221572607755661,-0.028694994747638702,1.2386243343353271,"X",0.99979633,0,0
"1970-01-01","01-00",0.0,0.0,-0.86,-0.012234894558787346,-0.02874760888516903,1.2386926412582397,"X",0.99981314,0,0
"1970-01-01","01-00",0.0,0.0,-0.564,-0.012360284104943275,-0.02872048132121563,1.2387328147888184,"X",0.99979264,0,0
"1970-01-01","01-00",0.0,0.0,-0.648,-0.01269484031945467,-0.028721816837787628,1.238112449645996,"X",0.99967575,0,0
"1970-01-01","01-00",0.0,0.0,-0.609,-0.012646935880184174,-0.028739815577864647,1.2378766536712646,"X",0.99999976,0,0
"Date","Time","LatGPS","LonGPS","Alt","Roll","Pitch","Yaw","Letter","Conf.","Lat","Lon"
"1970-01-01","01-00",0.0,0.0,-0.994,-0.012566682882606983,-0.028578156605362892,1.2288028001785278,"I",0.24640267,0,0
"1970-01-01","01-00",0.0,0.0,-0.91,-0.01250847801566124,-0.028613558039069176,1.2287395000457764,"X",0.99848723,0,0
"1970-01-01","01-00",0.0,0.0,-0.838,-0.012646321207284927,-0.028584517538547516,1.2289786338806152,"X",0.99984884,0,0
"1970-01-01","01-00",0.0,0.0,-0.877,-0.01264978852123022,-0.028698818758130074,1.2294143438339233,"X",0.99957615,0,0
"1970-01-01","01-00",0.0,0.0,-0.933,-0.012571191415190697,-0.02875346504151821,1.2295868396759033,"X",0.9999039,0,0
"1970-01-01","01-00",0.0,0.0,-0.832,-0.012544131837785244,-0.028919588774442673,1.2299673557281494,"X",0.99992037,0,0
"1970-01-01","01-00",0.0,0.0,-0.787,-0.012781906872987747,-0.02887638472020626,1.2302912473678589,"X",0.9999155,0,0
"1970-01-01","01-00",0.0,0.0,-0.726,-0.013013770803809166,-0.028848957270383835,1.230339527130127,"X",0.99992776,0,0
"1970-01-01","01-00",0.0,0.0,-0.938,-0.013059456832706928,-0.02859301120042801,1.2302485704421997,"X",0.9999502,0,0
"1970-01-01","01-00",0.0,0.0,-0.888,-0.012800321914255619,-0.028601115569472313,1.2305364608764648,"X",0.99994826,0,0
"1970-01-01","01-00",0.0,0.0,-0.905,-0.012722186744213104,-0.028629053384065628,1.2306599617004395,"X",0.999969,0,0
"1970-01-01","01-00",0.0,0.0,-0.927,-0.012507997453212738,-0.028506144881248474,1.2309420108795166,"X",0.9999418,0,0
"1970-01-01","01-00",0.0,0.0,-1.0,-0.012675945647060871,-0.028593402355909348,1.2311862707138062,"X",0.99995816,0,0
"1970-01-01","01-00",0.0,0.0,-0.748,-0.0126261031255126,-0.028480200096964836,1.2314488887786865,"X",0.9999567,0,0
"1970-01-01","01-00",0.0,0.0,-0.827,-0.012488706968724728,-0.028511429205536842,1.2313989400863647,"X",0.9999839,0,0
"1970-01-01","01-00",0.0,0.0,-0.704,-0.012430058792233467,-0.028746971860527992,1.23139226436615,"X",0.9999862,0,0
"1970-01-01","01-00",0.0,0.0,-0.882,-0.012465042993426323,-0.028690706938505173,1.2313209772109985,"X",0.9999875,0,0
"1970-01-01","01-00",0.0,0.0,-0.76,-0.012396217323839664,-0.02868468686938286,1.2313579320907593,"X",0.9999869,0,0
"1970-01-01","01-00",0.0,0.0,-0.871,-0.012258101254701614,-0.028583912178874016,1.2317030429840088,"X",0.99997795,0,0
"1970-01-01","01-00",0.0,0.0,-0.776,-0.01224435493350029,-0.02864200621843338,1.2318470478057861,"X",0.999992,0,0
"1970-01-01","01-00",0.0,0.0,-0.743,-0.012436317279934883,-0.02863873355090618,1.231767177581787,"X",0.9999809,0,0
"Date","Time","LatGPS","LonGPS","Alt","Roll","Pitch","Yaw","Letter","Conf.","Lat","Lon"
"1970-01-01","01-00",0.0,0.0,-0.625,-0.01335169281810522,-0.030326640233397484,1.6909650564193726,"N",0.47192058,0,0
"1970-01-01","01-00",0.0,0.0,-0.681,-0.013183985836803913,-0.030603831633925438,1.6903798580169678,"X",0.9999995,0,0
"1970-01-01","01-00",0.0,0.0,-0.665,-0.013183985836803913,-0.030603831633925438,1.6903798580169678,"X",0.9999989,0,0
"1970-01-01","01-00",0.0,0.0,-0.653,-0.013114805333316326,-0.03055683895945549,1.6902376413345337,"X",0.99999595,0,0
"1970-01-01","01-00",0.0,0.0,-0.709,-0.013275829143822193,-0.030673600733280182,1.6902676820755005,"X",0.99999166,0,0
"1970-01-01","01-00",0.0,0.0,-0.709,-0.013363443315029144,-0.030771514400839806,1.6902496814727783,"X",0.9999529,0,0
"1970-01-01","01-00",0.0,0.0,-0.743,-0.013393129222095013,-0.0305792149156332,1.6904408931732178,"X",0.99989665,0,0
"1970-01-01","01-00",0.0,0.0,-0.692,-0.013474594801664352,-0.030596069991588593,1.6905412673950195,"X",0.9998324,0,0
"1970-01-01","01-00",0.0,0.0,-0.692,-0.013474594801664352,-0.030596069991588593,1.6905412673950195,"X",0.99974436,0,0
"1970-01-01","01-00",0.0,0.0,-0.62,-0.013535839505493641,-0.030446430668234825,1.6903390884399414,"X",0.9994991,0,0
"1970-01-01","01-00",0.0,0.0,-0.855,-0.013460907153785229,-0.03060947172343731,1.690364956855774,"X",0.99979705,0,0
"1970-01-01","01-00",0.0,0.0,-0.648,-0.013554871082305908,-0.030688924714922905,1.6905568838119507,"X",0.9999974,0,0
"1970-01-01","01-00",0.0,0.0,-0.648,-0.0137433847412467,-0.03075570985674858,1.6905357837677002,"X",0.9999981,0,0
"1970-01-01","01-00",0.0,0.0,-0.681,-0.013635057024657726,-0.030731938779354095,1.6905200481414795,"X",0.99999976,0,0
"1970-01-01","01-00",0.0,0.0,-0.653,-0.013622725382447243,-0.030724572017788887,1.6905789375305176,"V",0.8202363,0,0
"1970-01-01","01-00",0.0,0.0,-0.637,-0.013619529083371162,-0.030614333227276802,1.690575361251831,"7",0.5402878,0,0
"1970-01-01","01-00",0.0,0.0,-0.637,-0.013619529083371162,-0.030614333227276802,1.690575361251831,"7",0.5089726,0,0
"1970-01-01","01-00",0.0,0.0,-0.687,-0.01359802857041359,-0.030666381120681763,1.69057297706604,"7",0.49949887,0,0
"1970-01-01","01-00",0.0,0.0,-0.687,-0.01359802857041359,-0.030666381120681763,1.69057297706604,"J",0.46712354,0,0
"1970-01-01","01-00",0.0,0.0,-0.469,-0.013562225736677647,-0.03067510575056076,1.6905574798583984,"J",0.47590485,0,0
"1970-01-01","01-00",0.0,0.0,-0.67,-0.014327283948659897,-0.029918314889073372,1.6871837377548218,"J",0.5600829,0,0
"1970-01-01","01-00",0.0,0.0,-0.676,-0.014608710072934628,-0.029993170872330666,1.6869475841522217,"Z",0.30498737,0,0
"1970-01-01","01-00",0.0,0.0,-0.732,-0.014414378441870213,-0.03002670221030712,1.6866450309753418,"V",0.45234373,0,0
"1970-01-01","01-00",0.0,0.0,-0.547,-0.014150625094771385,-0.030191846191883087,1.6864053010940552,"Y",0.960322,0,0
"1970-01-01","01-00",0.0,0.0,-0.754,-0.01426375936716795,-0.03021748922765255,1.686457633972168,"Y",0.83426386,0,0
"1970-01-01","01-00",0.0,0.0,-0.642,-0.014158668927848339,-0.030230121687054634,1.686165690422058,"Y",0.48080778,0,0
"1970-01-01","01-00",0.0,0.0,-0.827,-0.014380686916410923,-0.030434804037213326,1.686094045639038,"N",0.24732766,0,0
"1970-01-01","01-00",0.0,0.0,-0.597,-0.014738892205059528,-0.030298173427581787,1.6856673955917358,"7",0.8277358,0,0
"Date","Time","LatGPS","LonGPS","Alt","Roll","Pitch","Yaw","Letter","Conf.","Lat","Lon"
"1970-01-01","01-00",0.0,0.0,-0.011,-0.013600105419754982,-0.02770402282476425,0.8447057604789734,"7",0.77561766,0,0
"1970-01-01","01-00",0.0,0.0,0.05,-0.013600105419754982,-0.02770402282476425,0.8447057604789734,"N",0.99948275,0,0
"1970-01-01","01-00",0.0,0.0,-0.039,-0.013457851484417915,-0.027854667976498604,0.8445822596549988,"I",0.3741567,0,0
"1970-01-01","01-00",0.0,0.0,-0.095,-0.013406619429588318,-0.028001489117741585,0.8446328639984131,"N",0.9999722,0,0
"1970-01-01","01-00",0.0,0.0,-0.044,-0.01339208334684372,-0.02812608703970909,0.8444610238075256,"N",0.99992764,0,0
"1970-01-01","01-00",0.0,0.0,0.178,-0.013245996087789536,-0.028250252828001976,0.8445528745651245,"N",0.99979275,0,0
"1970-01-01","01-00",0.0,0.0,-0.044,-0.013162411749362946,-0.028036219999194145,0.8444161415100098,"N",0.999321,0,0
"1970-01-01","01-00",0.0,0.0,0.064,-0.013078348711133003,-0.028018338605761528,0.8444978594779968,"N",0.9990847,0,0
"1970-01-01","01-00",0.0,0.0,-0.005,-0.013076601549983025,-0.027963289991021156,0.8444892168045044,"N",0.99936455,0,0
"1970-01-01","01-00",0.0,0.0,0.136,-0.013022034429013729,-0.027858953922986984,0.8447018265724182,"N",0.9996793,0,0
"1970-01-01","01-00",0.0,0.0,-0.022,-0.013046042062342167,-0.027878127992153168,0.8447750806808472,"N",0.9997911,0,0
"1970-01-01","01-00",0.0,0.0,0.097,-0.013077056966722012,-0.027880104258656502,0.8447323441505432,"N",0.999931,0,0
"1970-01-01","01-00",0.0,0.0,0.097,-0.013196385465562344,-0.028033137321472168,0.8449615240097046,"N",0.9999304,0,0
"1970-01-01","01-00",0.0,0.0,-0.061,-0.013125451281666756,-0.028036901727318764,0.845048725605011,"N",0.9999472,0,0
"1970-01-01","01-00",0.0,0.0,-0.061,-0.01312299631536007,-0.028059370815753937,0.8450990915298462,"N",0.9999645,0,0
"1970-01-01","01-00",0.0,0.0,0.103,-0.013230280950665474,-0.028128206729888916,0.8451435565948486,"N",0.9999746,0,0
"1970-01-01","01-00",0.0,0.0,0.025,-0.01324425172060728,-0.028202010318636894,0.8451148271560669,"N",0.99998844,0,0
"1970-01-01","01-00",0.0,0.0,0.025,-0.01324425172060728,-0.028202010318636894,0.8451148271560669,"N",0.9999875,0,0
"1970-01-01","01-00",0.0,0.0,0.156,-0.013182149268686771,-0.02831040695309639,0.8450085520744324,"N",0.99997735,0,0
"1970-01-01","01-00",0.0,0.0,0.106,-0.013122710399329662,-0.028199218213558197,0.8450943231582642,"M",0.5107408,0,0
"1970-01-01","01-00",0.0,0.0,-0.039,-0.013186374679207802,-0.0281577929854393,0.8450498580932617,"J",0.23320721,0,0
"Date","Time","LatGPS","LonGPS","Alt","Roll","Pitch","Yaw","Letter","Conf.","Lat","Lon"
"1970-01-01","01-00",0.0,0.0,-1.341,-0.012057623825967312,-0.028090426698327065,1.0723590850830078,"7",0.99119395,0,0
"1970-01-01","01-00",0.0,0.0,-1.363,-0.012049872428178787,-0.02804981730878353,1.072383999824524,"7",0.9885231,0,0
"1970-01-01","01-00",0.0,0.0,-1.285,-0.012100775726139545,-0.028075559064745903,1.0723180770874023,"7",0.9898637,0,0
"1970-01-01","01-00",0.0,0.0,-1.285,-0.012100775726139545,-0.028075559064745903,1.0723180770874023,"7",0.9907011,0,0
"1970-01-01","01-00",0.0,0.0,-1.257,-0.012168295681476593,-0.028198037296533585,1.0722817182540894,"7",0.7156183,0,0
"1970-01-01","01-00",0.0,0.0,-1.307,-0.012227986007928848,-0.028242509812116623,1.0723479986190796,"7",0.77783036,0,0
"1970-01-01","01-00",0.0,0.0,-1.33,-0.01224479265511036,-0.02833612635731697,1.0722167491912842,"7",0.7862676,0,0
"1970-01-01","01-00",0.0,0.0,-1.33,-0.012248527258634567,-0.028376823291182518,1.0721904039382935,"7",0.6494302,0,0
"1970-01-01","01-00",0.0,0.0,-1.173,-0.012248527258634567,-0.028376823291182518,1.0721904039382935,"7",0.5998497,0,0
"1970-01-01","01-00",0.0,0.0,-1.469,-0.012137167155742645,-0.028446601703763008,1.072203516960144,"7",0.99185354,0,0
"1970-01-01","01-00",0.0,0.0,-1.302,-0.01206214353442192,-0.02839752286672592,1.0723133087158203,"7",0.9865014,0,0
"1970-01-01","01-00",0.0,0.0,-1.346,-0.012157591059803963,-0.028404954820871353,1.0723692178726196,"7",0.99026185,0,0
"1970-01-01","01-00",0.0,0.0,-1.525,-0.012142014689743519,-0.028382711112499237,1.0725784301757812,"7",0.98926395,0,0
"1970-01-01","01-00",0.0,0.0,-1.525,-0.012142014689743519,-0.028382711112499237,1.0725784301757812,"7",0.9863251,0,0
"1970-01-01","01-00",0.0,0.0,-1.274,-0.012116935104131699,-0.02829737961292267,1.0726345777511597,"7",0.97300154,0,0
"1970-01-01","01-00",0.0,0.0,-1.274,-0.012116935104131699,-0.02829737961292267,1.0726345777511597,"7",0.8757106,0,0
"1970-01-01","01-00",0.0,0.0,-1.246,-0.012208196334540844,-0.028340952470898628,1.0728182792663574,"7",0.9795561,0,0
"1970-01-01","01-00",0.0,0.0,-1.207,-0.012386610731482506,-0.028326528146862984,1.073006510734558,"7",0.97649264,0,0
"1970-01-01","01-00",0.0,0.0,-1.475,-0.012470887042582035,-0.02826344035565853,1.0730983018875122,"7",0.98232,0,0
"1970-01-01","01-00",0.0,0.0,-1.447,-0.012553727254271507,-0.028300946578383446,1.0730860233306885,"7",0.97708976,0,0
"1970-01-01","01-00",0.0,0.0,-1.447,-0.012555507011711597,-0.02816772274672985,1.073050618171692,"7",0.9840395,0,0
"1970-01-01","01-00",0.0,0.0,-1.547,-0.012468462809920311,-0.028164776042103767,1.0729715824127197,"7",0.9823512,0,0
"1970-01-01","01-00",0.0,0.0,-1.547,-0.012468462809920311,-0.028164776042103767,1.0729715824127197,"7",0.9798323,0,0
"1970-01-01","01-00",0.0,0.0,-1.268,-0.01322195678949356,-0.027599671855568886,1.0982699394226074,"7",0.98035496,0,0
"1970-01-01","01-00",0.0,0.0,-1.419,-0.3705874979496002,-0.04900457710027695,1.0045169591903687,"7",0.9767903,0,0
"1970-01-01","01-00",0.0,0.0,-1.38,-0.4758690893650055,-0.05507827550172806,1.0368356704711914,"7",0.97910196,0,0
"1970-01-01","01-00",0.0,0.0,-1.24,-0.5176879167556763,-0.05602646246552467,1.0263787508010864,"7",0.97584593,0,0
"1970-01-01","01-00",0.0,0.0,-1.341,-0.5522031784057617,-0.056971415877342224,1.014273762702942,"7",0.97967476,0,0
"1970-01-01","01-00",0.0,0.0,-1.324,-0.5551119446754456,-0.05625101178884506,1.0090596675872803,"7",0.9839585,0,0
"1970-01-01","01-00",0.0,0.0,-1.38,-0.5504517555236816,-0.05527704581618309,1.0025752782821655,"7",0.9864478,0,0
"1970-01-01","01-00",0.0,0.0,-1.492,-0.21507728099822998,-0.05016165226697922,1.069072961807251,"7",0.81554896,0,0
"1970-01-01","01-00",0.0,0.0,-1.564,-0.005789294373244047,-0.03016003407537937,1.1282092332839966,"7",0.9051004,0,0
"1970-01-01","01-00",0.0,0.0,-1.374,0.275042325258255,-0.20107072591781616,1.1636888980865479,"7",0.93340814,0,0
"1970-01-01","01-00",0.0,0.0,-1.374,0.693816065788269,-0.22493362426757812,1.2064611911773682,"7",0.9500525,0,0
"1970-01-01","01-00",0.0,0.0,-1.413,0.9440112709999084,-0.2657690942287445,1.2393348217010498,"7",0.8719665,0,0
"1970-01-01","01-00",0.0,0.0,-1.693,0.9906538724899292,-0.282192200422287,1.2392804622650146,"7",0.94282055,0,0
"1970-01-01","01-00",0.0,0.0,-1.464,0.9906538724899292,-0.282192200422287,1.2392804622650146,"7",0.87045485,0,0
"1970-01-01","01-00",0.0,0.0,-1.385,0.97234708070755,-0.2892017066478729,1.2376039028167725,"7",0.8464977,0,0
"1970-01-01","01-00",0.0,0.0,-1.302,0.7400989532470703,-0.25964999198913574,1.1987361907958984,"7",0.8447379,0,0
"1970-01-01","01-00",0.0,0.0,-1.341,-0.12696368992328644,-0.13072770833969116,0.9705582857131958,"7",0.7992436,0,0
"1970-01-01","01-00",0.0,0.0,-1.38,-0.15563444793224335,-0.0892912968993187,0.9909758567810059,"7",0.8076268,0,0
"1970-01-01","01-00",0.0,0.0,-1.38,-0.15563444793224335,-0.0892912968993187,0.9909758567810059,"7",0.7833033,0,0
"1970-01-01","01-00",0.0,0.0,-1.38,-0.15563444793224335,-0.0892912968993187,0.9909758567810059,"7",0.7133163,0,0
"1970-01-01","01-00",0.0,0.0,-1.346,-0.013206342235207558,-0.07465153187513351,1.0406074523925781,"7",0.7733012,0,0
"1970-01-01","01-00",0.0,0.0,-1.212,-0.012739647179841995,-0.07197413593530655,1.0446261167526245,"7",0.9633473,0,0
"1970-01-01","01-00",0.0,0.0,-1.525,-0.013196710497140884,-0.0704571083188057,1.047383189201355,"7",0.86016935,0,0
"1970-01-01","01-00",0.0,0.0,-1.48,-0.013584873639047146,-0.06856692582368851,1.051093578338623,"7",0.8844341,0,0
"1970-01-01","01-00",0.0,0.0,-1.363,-0.013584873639047146,-0.06856692582368851,1.051093578338623,"7",0.9313249,0,0
"1970-01-01","01-00",0.0,0.0,-1.413,-0.0137715395539999,-0.066811703145504,1.054469347000122,"7",0.99206877,0,0
"1970-01-01","01-00",0.0,0.0,-1.419,-0.013930713757872581,-0.06596454977989197,1.0561202764511108,"7",0.9899216,0,0
"1970-01-01","01-00",0.0,0.0,-1.346,-0.013892178423702717,-0.06498102098703384,1.0576014518737793,"7",0.99077445,0,0
"1970-01-01","01-00",0.0,0.0,-1.43,-0.01391048263758421,-0.0642024427652359,1.059098243713379,"7",0.9915093,0,0
"1970-01-01","01-00",0.0,0.0,-1.531,-0.014020462520420551,-0.061970047652721405,1.0632208585739136,"7",0.9921813,0,0
"1970-01-01","01-00",0.0,0.0,-1.497,-0.014026115648448467,-0.061501190066337585,1.063994288444519,"7",0.9964169,0,0
"1970-01-01","01-00",0.0,0.0,-1.324,-0.014202933758497238,-0.06006091088056564,1.0666598081588745,"7",0.9958228,0,0
"1970-01-01","01-00",0.0,0.0,-1.447,-0.014635249972343445,-0.06042838096618652,1.0679163932800293,"7",0.9950917,0,0
"1970-01-01","01-00",0.0,0.0,-1.553,-0.014468955807387829,-0.058459315448999405,1.069287896156311,"7",0.9950847,0,0
"1970-01-01","01-00",0.0,0.0,-1.464,-0.012128808535635471,-0.05455227568745613,1.04520845413208,"7",0.99553394,0,0
"1970-01-01","01-00",0.0,0.0,-1.357,-0.018300000578165054,0.04164455085992813,1.155306339263916,"7",0.99590874,0,0
"1970-01-01","01-00",0.0,0.0,-1.514,-0.013341679237782955,0.3556663990020752,1.1641898155212402,"7",0.9950677,0,0
"1970-01-01","01-00",0.0,0.0,-1.436,-0.029273996129631996,0.8667730689048767,1.0800323486328125,"7",0.99509454,0,0
"1970-01-01","01-00",0.0,0.0,-1.335,-0.033089831471443176,0.9223922491073608,1.0430397987365723,"7",0.99460196,0,0
"1970-01-01","01-00",0.0,0.0,-1.413,-0.03378743305802345,0.9299036860466003,1.0387405157089233,"7",0.9943973,0,0
"1970-01-01","01-00",0.0,0.0,-1.19,-0.034909799695014954,0.9338947534561157,1.035667061805725,"7",0.99525476,0,0
"1970-01-01","01-00",0.0,0.0,-1.48,-0.036050207912921906,0.9305062294006348,1.0338422060012817,"7",0.9949393,0,0
"1970-01-01","01-00",0.0,0.0,-1.57,-0.036739736795425415,0.9213818907737732,1.0340512990951538,"7",0.99313265,0,0
"1970-01-01","01-00",0.0,0.0,-1.419,-0.03735969960689545,0.8436691761016846,1.034708023071289,"7",0.992326,0,0
"1970-01-01","01-00",0.0,0.0,-1.38,-0.006300298497080803,0.45889773964881897,1.1382561922073364,"7",0.99221194,0,0
"1970-01-01","01-00",0.0,0.0,-1.341,-0.05087286978960037,0.08143781125545502,1.1250667572021484,"7",0.9942451,0,0
"1970-01-01","01-00",0.0,0.0,-1.385,-0.09168783575296402,-0.6513304710388184,1.1621534824371338,"7",0.9939209,0,0
"1970-01-01","01-00",0.0,0.0,-1.436,-0.09168783575296402,-0.6513304710388184,1.1621534824371338,"7",0.9938036,0,0
"1970-01-01","01-00",0.0,0.0,-1.525,0.060623735189437866,-0.873986005783081,1.1583223342895508,"7",0.9926899,0,0
"1970-01-01","01-00",0.0,0.0,-1.38,-0.04413028806447983,-0.9371839165687561,1.2250328063964844,"7",0.9922903,0,0
"1970-01-01","01-00",0.0,0.0,-1.397,-0.10870129615068436,-1.0279253721237183,1.2956867218017578,"7",0.9919526,0,0
"1970-01-01","01-00",0.0,0.0,-1.447,-0.10996492207050323,-1.0449016094207764,1.3007161617279053,"7",0.9919008,0,0
"1970-01-01","01-00",0.0,0.0,-1.33,-0.10683409124612808,-1.0628348588943481,1.29786217212677,"7",0.9928376,0,0
"1970-01-01","01-00",0.0,0.0,-1.408,-0.0794307142496109,-0.9337188601493835,1.2703630924224854,"7",0.9928334,0,0
"1970-01-01","01-00",0.0,0.0,-1.324,-0.03706054762005806,-0.3309031128883362,1.2585612535476685,"7",0.9927757,0,0
"1970-01-01","01-00",0.0,0.0,-1.346,-0.026898778975009918,-0.0895615667104721,1.2064340114593506,"7",0.99404293,0,0
"1970-01-01","01-00",0.0,0.0,-1.307,-0.0011903060367330909,-0.030487729236483574,1.1812142133712769,"7",0.9943883,0,0
"1970-01-01","01-00",0.0,0.0,-1.374,0.1651313602924347,-0.03165731206536293,1.1810555458068848,"7",0.99263716,0,0
"1970-01-01","01-00",0.0,0.0,-1.43,0.3907099664211273,-0.032098423689603806,1.185894250869751,"7",0.9926501,0,0
"1970-01-01","01-00",0.0,0.0,-1.447,0.5447824001312256,-0.03287049010396004,1.1642591953277588,"7",0.99199295,0,0
"1970-01-01","01-00",0.0,0.0,-1.408,0.5974588990211487,-0.032944001257419586,1.1469875574111938,"7",0.9931779,0,0
"1970-01-01","01-00",0.0,0.0,-1.391,0.6215998530387878,-0.0333089716732502,1.1376975774765015,"7",0.99553347,0,0
"1970-01-01","01-00",0.0,0.0,-1.29,0.6247215867042542,-0.03323793038725853,1.1316194534301758,"7",0.9942516,0,0
"1970-01-01","01-00",0.0,0.0,-1.413,0.6175965070724487,-0.03295234590768814,1.1312209367752075,"7",0.9962549,0,0
"1970-01-01","01-00",0.0,0.0,-1.514,0.5630621314048767,-0.03265736624598503,1.1274919509887695,"7",0.99635494,0,0
"1970-01-01","01-00",0.0,0.0,-1.514,0.5630621314048767,-0.03265736624598503,1.1274919509887695,"7",0.99487936,0,0
"1970-01-01","01-00",0.0,0.0,-1.447,-0.0209821667522192,-0.02967461757361889,1.103062391281128,"7",0.9904407,0,0
"1970-01-01","01-00",0.0,0.0,-1.318,-0.2903856039047241,-0.02992313541471958,1.0761126279830933,"7",0.99240875,0,0
"1970-01-01","01-00",0.0,0.0,-1.447,-0.2903856039047241,-0.02992313541471958,1.0761126279830933,"7",0.98772186,0,0
"1970-01-01","01-00",0.0,0.0,-1.508,-0.5883510708808899,-0.028400937095284462,1.0408291816711426,"7",0.98962945,0,0
"1970-01-01","01-00",0.0,0.0,-1.374,-0.6599305272102356,-0.027839217334985733,1.0273560285568237,"7",0.9919701,0,0
"1970-01-01","01-00",0.0,0.0,-1.57,-0.7036582231521606,-0.027077199891209602,1.0219491720199585,"7",0.98812443,0,0
"1970-01-01","01-00",0.0,0.0,-1.369,-0.7002687454223633,-0.026053521782159805,1.0209063291549683,"7",0.9763024,0,0
"1970-01-01","01-00",0.0,0.0,-1.262,-0.6740318536758423,-0.02575778216123581,1.022074580192566,"7",0.90952086,0,0
"1970-01-01","01-00",0.0,0.0,-1.262,-0.6740318536758423,-0.02575778216123581,1.022074580192566,"7",0.71041495,0,0
"1970-01-01","01-00",0.0,0.0,-1.436,-0.569628119468689,-0.026709144935011864,1.0317131280899048,"7",0.9526207,0,0
"1970-01-01","01-00",0.0,0.0,-1.341,-0.1450149118900299,-0.031460557132959366,1.0963767766952515,"7",0.9155701,0,0
"1970-01-01","01-00",0.0,0.0,-1.369,-0.1450149118900299,-0.031460557132959366,1.0963767766952515,"7",0.9442487,0,0
"1970-01-01","01-00",0.0,0.0,-1.357,-0.017332224175333977,-0.029760779812932014,1.1100505590438843,"7",0.89089495,0,0
"1970-01-01","01-00",0.0,0.0,-1.274,-0.004031378775835037,-0.02853161282837391,1.1139941215515137,"7",0.74411315,0,0
"1970-01-01","01-00",0.0,0.0,-1.391,0.22107313573360443,-0.028655393049120903,1.0978431701660156,"7",0.78371465,0,0
"1970-01-01","01-00",0.0,0.0,-1.218,0.527820348739624,-0.032345592975616455,1.0932836532592773,"7",0.9506289,0,0
"1970-01-01","01-00",0.0,0.0,-1.503,0.7044720649719238,-0.035232048481702805,1.0717226266860962,"7",0.8229077,0,0
"1970-01-01","01-00",0.0,0.0,-1.346,0.7479569315910339,-0.03614133223891258,1.0658683776855469,"V",0.7239286,0,0
"1970-01-01","01-00",0.0,0.0,-1.346,0.7479569315910339,-0.03614133223891258,1.0658683776855469,"7",0.9962477,0,0
"1970-01-01","01-00",0.0,0.0,-1.419,0.7479569315910339,-0.03614133223891258,1.0658683776855469,"7",0.9479015,0,0
"1970-01-01","01-00",0.0,0.0,-1.229,0.7393767237663269,-0.03549623116850853,1.0605931282043457,"7",0.9728151,0,0
"1970-01-01","01-00",0.0,0.0,-1.29,0.6757822036743164,-0.03587975725531578,1.051141619682312,"7",0.97896475,0,0
"1970-01-01","01-00",0.0,0.0,-1.29,0.5013453960418701,-0.03495800495147705,1.0546902418136597,"7",0.7771728,0,0
"1970-01-01","01-00",0.0,0.0,-1.324,0.5013453960418701,-0.03495800495147705,1.0546902418136597,"7",0.68389434,0,0
"1970-01-01","01-00",0.0,0.0,-1.385,0.2854563891887665,-0.03231678530573845,1.0487334728240967,"7",0.5059202,0,0
"1970-01-01","01-00",0.0,0.0,-1.547,-0.017581714317202568,-0.03117460198700428,0.9956762194633484,"J",0.50959396,0,0
"1970-01-01","01-00",0.0,0.0,-1.547,-0.017581714317202568,-0.03117460198700428,0.9956762194633484,"J",0.53184605,0,0
"1970-01-01","01-00",0.0,0.0,-1.469,-0.017774907872080803,-0.033942196518182755,0.980507493019104,"J",0.5346833,0,0
"1970-01-01","01-00",0.0,0.0,-1.497,-0.014074972830712795,-0.03359457105398178,0.9321861267089844,"J",0.5182921,0,0
"1970-01-01","01-00",0.0,0.0,-1.385,-0.013061027973890305,-0.033696386963129044,0.9025149941444397,"J",0.5105357,0,0
"1970-01-01","01-00",0.0,0.0,-1.469,-0.012214339338243008,-0.033624399453401566,0.8583709001541138,"J",0.51224554,0,0
"1970-01-01","01-00",0.0,0.0,-1.425,-0.012202235870063305,-0.03402449190616608,0.8449029326438904,"J",0.5159534,0,0
"1970-01-01","01-00",0.0,0.0,-1.441,-0.011097630485892296,-0.03258707746863365,0.8379182815551758,"J",0.5172242,0,0
"1970-01-01","01-00",0.0,0.0,-1.43,-0.011163950897753239,-0.032857783138751984,0.8367223739624023,"J",0.5098695,0,0
"1970-01-01","01-00",0.0,0.0,-1.48,-0.008189207874238491,-0.0336671806871891,0.7293778657913208,"J",0.50730056,0,0
"1970-01-01","01-00",0.0,0.0,-1.464,-0.00617635203525424,-0.033204708248376846,0.6672384142875671,"J",0.50585216,0,0
"1970-01-01","01-00",0.0,0.0,-1.302,-0.006044568493962288,-0.03295805677771568,0.6655926704406738,"7",0.4931201,0,0
"1970-01-01","01-00",0.0,0.0,-1.195,-0.00579364039003849,-0.03249954432249069,0.6616976857185364,"J",0.49382806,0,0
"1970-01-01","01-00",0.0,0.0,-1.452,-0.005659031681716442,-0.03210511803627014,0.6595404744148254,"7",0.49414223,0,0
"1970-01-01","01-00",0.0,0.0,-1.229,-0.005460250657051802,-0.03160952776670456,0.6577409505844116,"7",0.5049534,0,0
"1970-01-01","01-00",0.0,0.0,-1.352,-0.005236134398728609,-0.031017061322927475,0.6536809206008911,"7",0.53262746,0,0
"1970-01-01","01-00",0.0,0.0,-1.318,-0.00423963088542223,-0.030544359236955643,0.6179085969924927,"7",0.53611094,0,0
"1970-01-01","01-00",0.0,0.0,-1.313,-0.003185997949913144,-0.030373379588127136,0.5758461952209473,"7",0.57472134,0,0
"1970-01-01","01-00",0.0,0.0,-1.374,-0.0009278812212869525,-0.029835470020771027,0.4802875220775604,"7",0.5799563,0,0
"1970-01-01","01-00",0.0,0.0,-1.251,-0.000914171279873699,-0.029806658625602722,0.4772992730140686,"7",0.59257853,0,0
"1970-01-01","01-00",0.0,0.0,-1.117,-0.0007683835574425757,-0.029335472732782364,0.4739053547382355,"7",0.6009822,0,0
"1970-01-01","01-00",0.0,0.0,-1.246,-0.000634970550891012,-0.029022280126810074,0.4682111442089081,"7",0.5964289,0,0
"1970-01-01","01-00",0.0,0.0,-1.274,-0.00037374647217802703,-0.028946403414011,0.43977126479148865,"7",0.5827216,0,0
"1970-01-01","01-00",0.0,0.0,-1.324,-0.00037096842424944043,-0.028447400778532028,0.4362294375896454,"7",0.5826136,0,0
"1970-01-01","01-00",0.0,0.0,-1.385,-0.0006961313192732632,-0.02848072722554207,0.43064430356025696,"7",0.5670198,0,0
"1970-01-01","01-00",0.0,0.0,-1.346,-0.0006838510162197053,-0.028192926198244095,0.4275709390640259,"7",0.56527615,0,0
"1970-01-01","01-00",0.0,0.0,-1.195,-0.0007821538019925356,-0.02807566337287426,0.42503857612609863,"7",0.561769,0,0
"1970-01-01","01-00",0.0,0.0,-1.195,-0.0008185919723473489,-0.02789059467613697,0.42249006032943726,"7",0.5621902,0,0
"1970-01-01","01-00",0.0,0.0,-1.268,-0.0010071075521409512,-0.027379263192415237,0.4172426760196686,"7",0.55915177,0,0
"1970-01-01","01-00",0.0,0.0,-1.397,-0.0010071075521409512,-0.027379263192415237,0.4172426760196686,"7",0.5587636,0,0
"1970-01-01","01-00",0.0,0.0,-1.179,-0.0009607297251932323,-0.027030669152736664,0.41482141613960266,"7",0.55892944,0,0
"1970-01-01","01-00",0.0,0.0,-1.179,-0.0009607297251932323,-0.027030669152736664,0.41482141613960266,"7",0.5706479,0,0
"1970-01-01","01-00",0.0,0.0,-1.179,-0.0009607297251932323,-0.027030669152736664,0.41482141613960266,"7",0.5686477,0,0
"1970-01-01","01-00",0.0,0.0,-1.179,-0.0009607297251932323,-0.027030669152736664,0.41482141613960266,"7",0.5811325,0,0
"1970-01-01","01-00",0.0,0.0,-1.179,-0.0009607297251932323,-0.027030669152736664,0.41482141613960266,"7",0.5879611,0,0
"1970-01-01","01-00",0.0,0.0,-1.179,-0.0009607297251932323,-0.027030669152736664,0.41482141613960266,"7",0.60069686,0,0
"1970-01-01","01-00",0.0,0.0,-1.179,-0.0009607297251932323,-0.027030669152736664,0.41482141613960266,"7",0.59980613,0,0
"1970-01-01","01-00",0.0,0.0,-1.179,-0.0009607297251932323,-0.027030669152736664,0.41482141613960266,"7",0.53564143,0,0
"1970-01-01","01-00",0.0,0.0,-1.179,-0.0009607297251932323,-0.027030669152736664,0.41482141613960266,"7",0.5299632,0,0
"1970-01-01","01-00",0.0,0.0,-1.179,-0.0009607297251932323,-0.027030669152736664,0.41482141613960266,"7",0.7009206,0,0
"1970-01-01","01-00",0.0,0.0,-1.179,-0.0009607297251932323,-0.027030669152736664,0.41482141613960266,"7",0.5175722,0,0
"1970-01-01","01-00",0.0,0.0,-1.179,-0.0009607297251932323,-0.027030669152736664,0.41482141613960266,"7",0.5393233,0,0
"1970-01-01","01-00",0.0,0.0,-1.179,-0.0009607297251932323,-0.027030669152736664,0.41482141613960266,"7",0.7550699,0,0
"1970-01-01","01-00",0.0,0.0,-1.179,-0.0009607297251932323,-0.027030669152736664,0.41482141613960266,"7",0.54134566,0,0
"1970-01-01","01-00",0.0,0.0,-1.179,-0.0009607297251932323,-0.027030669152736664,0.41482141613960266,"7",0.58910054,0,0
"1970-01-01","01-00",0.0,0.0,-1.179,-0.0009607297251932323,-0.027030669152736664,0.41482141613960266,"7",0.75131583,0,0
"1970-01-01","01-00",0.0,0.0,-1.179,-0.0009607297251932323,-0.027030669152736664,0.41482141613960266,"7",0.5435974,0,0
"1970-01-01","01-00",0.0,0.0,-1.179,-0.0009607297251932323,-0.027030669152736664,0.41482141613960266,"7",0.5522055,0,0
"1970-01-01","01-00",0.0,0.0,-1.179,-0.0009607297251932323,-0.027030669152736664,0.41482141613960266,"7",0.73781973,0,0
"1970-01-01","01-00",0.0,0.0,-1.179,-0.0009607297251932323,-0.027030669152736664,0.41482141613960266,"7",0.56463575,0,0
"1970-01-01","01-00",0.0,0.0,-1.179,-0.0009607297251932323,-0.027030669152736664,0.41482141613960266,"7",0.5708298,0,0
"1970-01-01","01-00",0.0,0.0,-1.179,-0.0009607297251932323,-0.027030669152736664,0.41482141613960266,"7",0.61653405,0,0
"1970-01-01","01-00",0.0,0.0,-1.179,-0.0009607297251932323,-0.027030669152736664,0.41482141613960266,"7",0.6381591,0,0
"1970-01-01","01-00",0.0,0.0,-1.179,-0.0009607297251932323,-0.027030669152736664,0.41482141613960266,"7",0.6402343,0,0
"1970-01-01","01-00",0.0,0.0,-1.179,-0.0009607297251932323,-0.027030669152736664,0.41482141613960266,"7",0.64909923,0,0
"1970-01-01","01-00",0.0,0.0,-1.179,-0.0009607297251932323,-0.027030669152736664,0.41482141613960266,"7",0.7268354,0,0
"1970-01-01","01-00",0.0,0.0,-1.179,-0.0009607297251932323,-0.027030669152736664,0.41482141613960266,"7",0.72999877,0,0
"1970-01-01","01-00",0.0,0.0,-1.179,-0.0009607297251932323,-0.027030669152736664,0.41482141613960266,"7",0.6511945,0,0
"1970-01-01","01-00",0.0,0.0,-1.179,-0.0009607297251932323,-0.027030669152736664,0.41482141613960266,"7",0.6466626,0,0
"1970-01-01","01-00",0.0,0.0,-1.179,-0.0009607297251932323,-0.027030669152736664,0.41482141613960266,"7",0.6537629,0,0
"1970-01-01","01-00",0.0,0.0,-1.179,-0.0009607297251932323,-0.027030669152736664,0.41482141613960266,"7",0.66016,0,0
"1970-01-01","01-00",0.0,0.0,-1.179,-0.0009607297251932323,-0.027030669152736664,0.41482141613960266,"7",0.66002464,0,0
"1970-01-01","01-00",0.0,0.0,-1.179,-0.0009607297251932323,-0.027030669152736664,0.41482141613960266,"7",0.65301937,0,0
"1970-01-01","01-00",0.0,0.0,-1.179,-0.0009607297251932323,-0.027030669152736664,0.41482141613960266,"7",0.67443293,0,0
"1970-01-01","01-00",0.0,0.0,-1.179,-0.0009607297251932323,-0.027030669152736664,0.41482141613960266,"7",0.6721946,0,0
"1970-01-01","01-00",0.0,0.0,-1.179,-0.0009607297251932323,-0.027030669152736664,0.41482141613960266,"7",0.6768152,0,0
"1970-01-01","01-00",0.0,0.0,-1.179,-0.0009607297251932323,-0.027030669152736664,0.41482141613960266,"7",0.678894,0,0
"1970-01-01","01-00",0.0,0.0,-1.179,-0.0009607297251932323,-0.027030669152736664,0.41482141613960266,"7",0.6846678,0,0
"1970-01-01","01-00",0.0,0.0,-1.179,-0.0009607297251932323,-0.027030669152736664,0.41482141613960266,"7",0.67144674,0,0
"1970-01-01","01-00",0.0,0.0,-1.179,-0.0009607297251932323,-0.027030669152736664,0.41482141613960266,"7",0.6909775,0,0
"1970-01-01","01-00",0.0,0.0,-1.179,-0.0009607297251932323,-0.027030669152736664,0.41482141613960266,"7",0.6782307,0,0
"1970-01-01","01-00",0.0,0.0,-1.179,-0.0009607297251932323,-0.027030669152736664,0.41482141613960266,"7",0.68028677,0,0
"1970-01-01","01-00",0.0,0.0,-1.179,-0.0009607297251932323,-0.027030669152736664,0.41482141613960266,"7",0.6914556,0,0
"1970-01-01","01-00",0.0,0.0,-1.179,-0.0009607297251932323,-0.027030669152736664,0.41482141613960266,"7",0.6859538,0,0
"1970-01-01","01-00",0.0,0.0,-1.179,-0.0009607297251932323,-0.027030669152736664,0.41482141613960266,"7",0.7421129,0,0
"1970-01-01","01-00",0.0,0.0,-1.179,-0.0009607297251932323,-0.027030669152736664,0.41482141613960266,"J",0.5532495,0,0
"1970-01-01","01-00",0.0,0.0,-1.179,-0.0009607297251932323,-0.027030669152736664,0.41482141613960266,"J",0.5466534,0,0
"1970-01-01","01-00",0.0,0.0,-1.179,-0.0009607297251932323,-0.027030669152736664,0.41482141613960266,"J",0.54357195,0,0
"1970-01-01","01-00",0.0,0.0,-1.179,-0.0009607297251932323,-0.027030669152736664,0.41482141613960266,"J",0.5359419,0,0
"1970-01-01","01-00",0.0,0.0,-1.179,-0.0009607297251932323,-0.027030669152736664,0.41482141613960266,"J",0.54271215,0,0
"1970-01-01","01-00",0.0,0.0,-1.179,-0.0009607297251932323,-0.027030669152736664,0.41482141613960266,"J",0.5488899,0,0
"1970-01-01","01-00",0.0,0.0,-1.179,-0.0009607297251932323,-0.027030669152736664,0.41482141613960266,"J",0.5360426,0,0
"1970-01-01","01-00",0.0,0.0,-1.179,-0.0009607297251932323,-0.027030669152736664,0.41482141613960266,"J",0.533888,0,0
"1970-01-01","01-00",0.0,0.0,-1.179,-0.0009607297251932323,-0.027030669152736664,0.41482141613960266,"J",0.53139687,0,0
"1970-01-01","01-00",0.0,0.0,-1.179,-0.0009607297251932323,-0.027030669152736664,0.41482141613960266,"J",0.5428961,0,0
"1970-01-01","01-00",0.0,0.0,-1.179,-0.0009607297251932323,-0.027030669152736664,0.41482141613960266,"J",0.5384086,0,0
"1970-01-01","01-00",0.0,0.0,-1.179,-0.0009607297251932323,-0.027030669152736664,0.41482141613960266,"J",0.5357589,0,0
"1970-01-01","01-00",0.0,0.0,-1.179,-0.0009607297251932323,-0.027030669152736664,0.41482141613960266,"J",0.5373412,0,0
"1970-01-01","01-00",0.0,0.0,-1.179,-0.0009607297251932323,-0.027030669152736664,0.41482141613960266,"J",0.5404173,0,0
"1970-01-01","01-00",0.0,0.0,-1.179,-0.0009607297251932323,-0.027030669152736664,0.41482141613960266,"J",0.5524047,0,0
"1970-01-01","01-00",0.0,0.0,-1.179,-0.0009607297251932323,-0.027030669152736664,0.41482141613960266,"J",0.5536701,0,0
"1970-01-01","01-00",0.0,0.0,-1.179,-0.0009607297251932323,-0.027030669152736664,0.41482141613960266,"J",0.53594875,0,0
"1970-01-01","01-00",0.0,0.0,-1.179,-0.0009607297251932323,-0.027030669152736664,0.41482141613960266,"J",0.53072244,0,0
"1970-01-01","01-00",0.0,0.0,-1.179,-0.0009607297251932323,-0.027030669152736664,0.41482141613960266,"J",0.5367005,0,0
"1970-01-01","01-00",0.0,0.0,-1.179,-0.0009607297251932323,-0.027030669152736664,0.41482141613960266,"7",0.49942935,0,0
"1970-01-01","01-00",0.0,0.0,-1.179,-0.0009607297251932323,-0.027030669152736664,0.41482141613960266,"7",0.62358284,0,0
"1970-01-01","01-00",0.0,0.0,-1.179,-0.0009607297251932323,-0.027030669152736664,0.41482141613960266,"7",0.72728825,0,0
"1970-01-01","01-00",0.0,0.0,-1.179,-0.0009607297251932323,-0.027030669152736664,0.41482141613960266,"7",0.87451094,0,0
"1970-01-01","01-00",0.0,0.0,-1.179,-0.0009607297251932323,-0.027030669152736664,0.41482141613960266,"7",0.90325063,0,0
"1970-01-01","01-00",0.0,0.0,-1.179,-0.0009607297251932323,-0.027030669152736664,0.41482141613960266,"7",0.8175196,0,0
"1970-01-01","01-00",0.0,0.0,-1.179,-0.0009607297251932323,-0.027030669152736664,0.41482141613960266,"7",0.9633052,0,0
"1970-01-01","01-00",0.0,0.0,-1.179,-0.0009607297251932323,-0.027030669152736664,0.41482141613960266,"7",0.74305505,0,0
"1970-01-01","01-00",0.0,0.0,-1.179,-0.0009607297251932323,-0.027030669152736664,0.41482141613960266,"7",0.99245024,0,0
"1970-01-01","01-00",0.0,0.0,-1.179,-0.0009607297251932323,-0.027030669152736664,0.41482141613960266,"7",0.941947,0,0
"1970-01-01","01-00",0.0,0.0,-1.179,-0.0009607297251932323,-0.027030669152736664,0.41482141613960266,"7",0.8462949,0,0
"1970-01-01","01-00",0.0,0.0,-1.179,-0.0009607297251932323,-0.027030669152736664,0.41482141613960266,"7",0.92334443,0,0
"1970-01-01","01-00",0.0,0.0,-1.179,-0.0009607297251932323,-0.027030669152736664,0.41482141613960266,"7",0.986427,0,0
"1970-01-01","01-00",0.0,0.0,-1.179,-0.0009607297251932323,-0.027030669152736664,0.41482141613960266,"7",0.97918165,0,0
"1970-01-01","01-00",0.0,0.0,-1.179,-0.0009607297251932323,-0.027030669152736664,0.41482141613960266,"7",0.60458106,0,0
"1970-01-01","01-00",0.0,0.0,-1.179,-0.0009607297251932323,-0.027030669152736664,0.41482141613960266,"7",0.57898474,0,0
"1970-01-01","01-00",0.0,0.0,-1.179,-0.0009607297251932323,-0.027030669152736664,0.41482141613960266,"7",0.7177017,0,0
"1970-01-01","01-00",0.0,0.0,-1.179,-0.0009607297251932323,-0.027030669152736664,0.41482141613960266,"7",0.740524,0,0
"1970-01-01","01-00",0.0,0.0,-1.179,-0.0009607297251932323,-0.027030669152736664,0.41482141613960266,"7",0.99044096,0,0
"1970-01-01","01-00",0.0,0.0,-1.179,-0.0009607297251932323,-0.027030669152736664,0.41482141613960266,"7",0.98071474,0,0
"1970-01-01","01-00",0.0,0.0,-1.179,-0.0009607297251932323,-0.027030669152736664,0.41482141613960266,"7",0.982515,0,0
"1970-01-01","01-00",0.0,0.0,-1.179,-0.0009607297251932323,-0.027030669152736664,0.41482141613960266,"7",0.982358,0,0
"1970-01-01","01-00",0.0,0.0,-1.179,-0.0009607297251932323,-0.027030669152736664,0.41482141613960266,"7",0.92501,0,0
"1970-01-01","01-00",0.0,0.0,-1.179,-0.0009607297251932323,-0.027030669152736664,0.41482141613960266,"7",0.8462071,0,0
"1970-01-01","01-00",0.0,0.0,-1.179,-0.0009607297251932323,-0.027030669152736664,0.41482141613960266,"7",0.7631262,0,0
"1970-01-01","01-00",0.0,0.0,-1.179,-0.0009607297251932323,-0.027030669152736664,0.41482141613960266,"7",0.80673474,0,0
"1970-01-01","01-00",0.0,0.0,-1.179,-0.0009607297251932323,-0.027030669152736664,0.41482141613960266,"7",0.8006524,0,0
"1970-01-01","01-00",0.0,0.0,-1.179,-0.0009607297251932323,-0.027030669152736664,0.41482141613960266,"7",0.74516785,0,0
"1970-01-01","01-00",0.0,0.0,-1.179,-0.0009607297251932323,-0.027030669152736664,0.41482141613960266,"7",0.73889476,0,0
"1970-01-01","01-00",0.0,0.0,-1.179,-0.0009607297251932323,-0.027030669152736664,0.41482141613960266,"7",0.76053035,0,0
"1970-01-01","01-00",0.0,0.0,-1.179,-0.0009607297251932323,-0.027030669152736664,0.41482141613960266,"7",0.76741064,0,0
"1970-01-01","01-00",0.0,0.0,-1.179,-0.0009607297251932323,-0.027030669152736664,0.41482141613960266,"7",0.7668904,0,0
"1970-01-01","01-00",0.0,0.0,-1.179,-0.0009607297251932323,-0.027030669152736664,0.41482141613960266,"7",0.77487755,0,0
"1970-01-01","01-00",0.0,0.0,-1.179,-0.0009607297251932323,-0.027030669152736664,0.41482141613960266,"7",0.79713494,0,0
"1970-01-01","01-00",0.0,0.0,-1.179,-0.0009607297251932323,-0.027030669152736664,0.41482141613960266,"7",0.83576745,0,0
"1970-01-01","01-00",0.0,0.0,-1.179,-0.0009607297251932323,-0.027030669152736664,0.41482141613960266,"7",0.8439971,0,0
"1970-01-01","01-00",0.0,0.0,-1.179,-0.0009607297251932323,-0.027030669152736664,0.41482141613960266,"7",0.8334634,0,0
"1970-01-01","01-00",0.0,0.0,-1.179,-0.0009607297251932323,-0.027030669152736664,0.41482141613960266,"7",0.8208264,0,0
"1970-01-01","01-00",0.0,0.0,-1.179,-0.0009607297251932323,-0.027030669152736664,0.41482141613960266,"7",0.73284024,0,0
"1970-01-01","01-00",0.0,0.0,-1.179,-0.0009607297251932323,-0.027030669152736664,0.41482141613960266,"7",0.68460464,0,0
"1970-01-01","01-00",0.0,0.0,-1.179,-0.0009607297251932323,-0.027030669152736664,0.41482141613960266,"7",0.72104025,0,0
"1970-01-01","01-00",0.0,0.0,-1.179,-0.0009607297251932323,-0.027030669152736664,0.41482141613960266,"7",0.65535414,0,0
"1970-01-01","01-00",0.0,0.0,-1.179,-0.0009607297251932323,-0.027030669152736664,0.41482141613960266,"7",0.5782329,0,0
"1970-01-01","01-00",0.0,0.0,-1.179,-0.0009607297251932323,-0.027030669152736664,0.41482141613960266,"7",0.7997597,0,0
"1970-01-01","01-00",0.0,0.0,-1.179,-0.0009607297251932323,-0.027030669152736664,0.41482141613960266,"7",0.91971344,0,0
"1970-01-01","01-00",0.0,0.0,-1.179,-0.0009607297251932323,-0.027030669152736664,0.41482141613960266,"7",0.92453426,0,0
"1970-01-01","01-00",0.0,0.0,-1.179,-0.0009607297251932323,-0.027030669152736664,0.41482141613960266,"7",0.9260651,0,0
"1970-01-01","01-00",0.0,0.0,-1.179,-0.0009607297251932323,-0.027030669152736664,0.41482141613960266,"7",0.7818558,0,0
"1970-01-01","01-00",0.0,0.0,-1.179,-0.0009607297251932323,-0.027030669152736664,0.41482141613960266,"7",0.9344198,0,0
"1970-01-01","01-00",0.0,0.0,-1.179,-0.0009607297251932323,-0.027030669152736664,0.41482141613960266,"7",0.9270117,0,0
"1970-01-01","01-00",0.0,0.0,-1.179,-0.0009607297251932323,-0.027030669152736664,0.41482141613960266,"7",0.9479752,0,0
"1970-01-01","01-00",0.0,0.0,-1.179,-0.0009607297251932323,-0.027030669152736664,0.41482141613960266,"7",0.9206464,0,0
"1970-01-01","01-00",0.0,0.0,-1.179,-0.0009607297251932323,-0.027030669152736664,0.41482141613960266,"7",0.97436696,0,0
"1970-01-01","01-00",0.0,0.0,-1.179,-0.0009607297251932323,-0.027030669152736664,0.41482141613960266,"7",0.95724195,0,0
"1970-01-01","01-00",0.0,0.0,-1.179,-0.0009607297251932323,-0.027030669152736664,0.41482141613960266,"7",0.9542936,0,0
"1970-01-01","01-00",0.0,0.0,-1.179,-0.0009607297251932323,-0.027030669152736664,0.41482141613960266,"7",0.9660946,0,0
"1970-01-01","01-00",0.0,0.0,-1.179,-0.0009607297251932323,-0.027030669152736664,0.41482141613960266,"7",0.87728125,0,0
"1970-01-01","01-00",0.0,0.0,-1.179,-0.0009607297251932323,-0.027030669152736664,0.41482141613960266,"7",0.9235662,0,0
"1970-01-01","01-00",0.0,0.0,-1.179,-0.0009607297251932323,-0.027030669152736664,0.41482141613960266,"7",0.9358079,0,0
"1970-01-01","01-00",0.0,0.0,-1.179,-0.0009607297251932323,-0.027030669152736664,0.41482141613960266,"7",0.94457155,0,0
"1970-01-01","01-00",0.0,0.0,-1.179,-0.0009607297251932323,-0.027030669152736664,0.41482141613960266,"7",0.93369955,0,0
"1970-01-01","01-00",0.0,0.0,-1.179,-0.0009607297251932323,-0.027030669152736664,0.41482141613960266,"7",0.9360012,0,0
"1970-01-01","01-00",0.0,0.0,-1.179,-0.0009607297251932323,-0.027030669152736664,0.41482141613960266,"7",0.9534794,0,0
"1970-01-01","01-00",0.0,0.0,-1.179,-0.0009607297251932323,-0.027030669152736664,0.41482141613960266,"7",0.9503938,0,0
"1970-01-01","01-00",0.0,0.0,-1.179,-0.0009607297251932323,-0.027030669152736664,0.41482141613960266,"7",0.9322373,0,0
"1970-01-01","01-00",0.0,0.0,-1.179,-0.0009607297251932323,-0.027030669152736664,0.41482141613960266,"7",0.9479176,0,0
"1970-01-01","01-00",0.0,0.0,-1.179,-0.0009607297251932323,-0.027030669152736664,0.41482141613960266,"7",0.9271216,0,0
"1970-01-01","01-00",0.0,0.0,-1.179,-0.0009607297251932323,-0.027030669152736664,0.41482141613960266,"7",0.8960423,0,0
"1970-01-01","01-00",0.0,0.0,-1.179,-0.0009607297251932323,-0.027030669152736664,0.41482141613960266,"7",0.915088,0,0
"1970-01-01","01-00",0.0,0.0,-1.179,-0.0009607297251932323,-0.027030669152736664,0.41482141613960266,"7",0.89766717,0,0
"1970-01-01","01-00",0.0,0.0,-1.179,-0.0009607297251932323,-0.027030669152736664,0.41482141613960266,"7",0.90964085,0,0
"1970-01-01","01-00",0.0,0.0,-1.179,-0.0009607297251932323,-0.027030669152736664,0.41482141613960266,"7",0.91042614,0,0
"1970-01-01","01-00",0.0,0.0,-1.179,-0.0009607297251932323,-0.027030669152736664,0.41482141613960266,"7",0.92743105,0,0
"1970-01-01","01-00",0.0,0.0,-1.179,-0.0009607297251932323,-0.027030669152736664,0.41482141613960266,"7",0.92831594,0,0
"1970-01-01","01-00",0.0,0.0,-1.179,-0.0009607297251932323,-0.027030669152736664,0.41482141613960266,"7",0.927804,0,0
"1970-01-01","01-00",0.0,0.0,-1.179,-0.0009607297251932323,-0.027030669152736664,0.41482141613960266,"7",0.93195117,0,0
"1970-01-01","01-00",0.0,0.0,-1.179,-0.0009607297251932323,-0.027030669152736664,0.41482141613960266,"7",0.93391496,0,0
"1970-01-01","01-00",0.0,0.0,-1.179,-0.0009607297251932323,-0.027030669152736664,0.41482141613960266,"7",0.9346553,0,0
"1970-01-01","01-00",0.0,0.0,-1.179,-0.0009607297251932323,-0.027030669152736664,0.41482141613960266,"7",0.92371106,0,0
"1970-01-01","01-00",0.0,0.0,-1.179,-0.0009607297251932323,-0.027030669152736664,0.41482141613960266,"7",0.91907007,0,0
"1970-01-01","01-00",0.0,0.0,-1.179,-0.0009607297251932323,-0.027030669152736664,0.41482141613960266,"7",0.91574043,0,0
"1970-01-01","01-00",0.0,0.0,-1.179,-0.0009607297251932323,-0.027030669152736664,0.41482141613960266,"7",0.91616297,0,0
"1970-01-01","01-00",0.0,0.0,-1.179,-0.0009607297251932323,-0.027030669152736664,0.41482141613960266,"7",0.9275326,0,0
"1970-01-01","01-00",0.0,0.0,-1.179,-0.0009607297251932323,-0.027030669152736664,0.41482141613960266,"7",0.9197411,0,0
"1970-01-01","01-00",0.0,0.0,-1.179,-0.0009607297251932323,-0.027030669152736664,0.41482141613960266,"7",0.9149184,0,0
"1970-01-01","01-00",0.0,0.0,-1.179,-0.0009607297251932323,-0.027030669152736664,0.41482141613960266,"7",0.90676045,0,0
"1970-01-01","01-00",0.0,0.0,-1.179,-0.0009607297251932323,-0.027030669152736664,0.41482141613960266,"7",0.9008458,0,0
"1970-01-01","01-00",0.0,0.0,-1.179,-0.0009607297251932323,-0.027030669152736664,0.41482141613960266,"7",0.89405864,0,0
"1970-01-01","01-00",0.0,0.0,-1.179,-0.0009607297251932323,-0.027030669152736664,0.41482141613960266,"7",0.9048617,0,0
"1970-01-01","01-00",0.0,0.0,-1.179,-0.0009607297251932323,-0.027030669152736664,0.41482141613960266,"7",0.9115491,0,0
"1970-01-01","01-00",0.0,0.0,-1.179,-0.0009607297251932323,-0.027030669152736664,0.41482141613960266,"7",0.9238801,0,0
"1970-01-01","01-00",0.0,0.0,-1.179,-0.0009607297251932323,-0.027030669152736664,0.41482141613960266,"7",0.91134274,0,0
"1970-01-01","01-00",0.0,0.0,-1.179,-0.0009607297251932323,-0.027030669152736664,0.41482141613960266,"7",0.8687812,0,0
"1970-01-01","01-00",0.0,0.0,-1.179,-0.0009607297251932323,-0.027030669152736664,0.41482141613960266,"7",0.85923487,0,0
"1970-01-01","01-00",0.0,0.0,-1.179,-0.0009607297251932323,-0.027030669152736664,0.41482141613960266,"7",0.8852686,0,0
"1970-01-01","01-00",0.0,0.0,-1.179,-0.0009607297251932323,-0.027030669152736664,0.41482141613960266,"7",0.86850965,0,0
"1970-01-01","01-00",0.0,0.0,-1.179,-0.0009607297251932323,-0.027030669152736664,0.41482141613960266,"7",0.90383166,0,0
"1970-01-01","01-00",0.0,0.0,-1.179,-0.0009607297251932323,-0.027030669152736664,0.41482141613960266,"7",0.82705754,0,0
"1970-01-01","01-00",0.0,0.0,-1.179,-0.0009607297251932323,-0.027030669152736664,0.41482141613960266,"7",0.788814,0,0
"1970-01-01","01-00",0.0,0.0,-1.179,-0.0009607297251932323,-0.027030669152736664,0.41482141613960266,"7",0.67494464,0,0
"1970-01-01","01-00",0.0,0.0,-1.179,-0.0009607297251932323,-0.027030669152736664,0.41482141613960266,"7",0.5538873,0,0
"1970-01-01","01-00",0.0,0.0,-1.179,-0.0009607297251932323,-0.027030669152736664,0.41482141613960266,"7",0.51412773,0,0
"1970-01-01","01-00",0.0,0.0,-1.179,-0.0009607297251932323,-0.027030669152736664,0.41482141613960266,"J",0.50048417,0,0
"1970-01-01","01-00",0.0,0.0,-1.179,-0.0009607297251932323,-0.027030669152736664,0.41482141613960266,"J",0.81245244,0,0
"1970-01-01","01-00",0.0,0.0,-1.179,-0.0009607297251932323,-0.027030669152736664,0.41482141613960266,"J",0.5833531,0,0
"1970-01-01","01-00",0.0,0.0,-1.179,-0.0009607297251932323,-0.027030669152736664,0.41482141613960266,"7",0.5920028,0,0
"1970-01-01","01-00",0.0,0.0,-1.179,-0.0009607297251932323,-0.027030669152736664,0.41482141613960266,"7",0.5170851,0,0
"1970-01-01","01-00",0.0,0.0,-1.179,-0.0009607297251932323,-0.027030669152736664,0.41482141613960266,"J",0.6004389,0,0
"1970-01-01","01-00",0.0,0.0,-1.179,-0.0009607297251932323,-0.027030669152736664,0.41482141613960266,"J",0.6127032,0,0
"1970-01-01","01-00",0.0,0.0,-1.179,-0.0009607297251932323,-0.027030669152736664,0.41482141613960266,"J",0.54679585,0,0
"1970-01-01","01-00",0.0,0.0,-1.179,-0.0009607297251932323,-0.027030669152736664,0.41482141613960266,"7",0.51458067,0,0
"1970-01-01","01-00",0.0,0.0,-1.179,-0.0009607297251932323,-0.027030669152736664,0.41482141613960266,"7",0.49984777,0,0
"1970-01-01","01-00",0.0,0.0,-1.179,-0.0009607297251932323,-0.027030669152736664,0.41482141613960266,"7",0.7465006,0,0
"1970-01-01","01-00",0.0,0.0,-1.179,-0.0009607297251932323,-0.027030669152736664,0.41482141613960266,"J",0.6333092,0,0
"1970-01-01","01-00",0.0,0.0,-1.179,-0.0009607297251932323,-0.027030669152736664,0.41482141613960266,"7",0.79616046,0,0
"1970-01-01","01-00",0.0,0.0,-1.179,-0.0009607297251932323,-0.027030669152736664,0.41482141613960266,"7",0.7751683,0,0
"1970-01-01","01-00",0.0,0.0,-1.179,-0.0009607297251932323,-0.027030669152736664,0.41482141613960266,"7",0.8527737,0,0
"1970-01-01","01-00",0.0,0.0,-1.179,-0.0009607297251932323,-0.027030669152736664,0.41482141613960266,"7",0.90524864,0,0
"1970-01-01","01-00",0.0,0.0,-1.179,-0.0009607297251932323,-0.027030669152736664,0.41482141613960266,"7",0.5381959,0,0
"1970-01-01","01-00",0.0,0.0,-1.179,-0.0009607297251932323,-0.027030669152736664,0.41482141613960266,"7",0.79087037,0,0
"1970-01-01","01-00",0.0,0.0,0.048,-0.011784102767705917,-0.02743080072104931,0.5720923542976379,"7",0.85504425,0,0
"1970-01-01","01-00",0.0,0.0,-0.282,-0.011680752970278263,-0.027633260935544968,0.5677446126937866,"7",0.54920006,0,0
"1970-01-01","01-00",0.0,0.0,-0.282,-0.011680752970278263,-0.027633260935544968,0.5677446126937866,"7",0.53060067,0,0
"1970-01-01","01-00",0.0,0.0,-0.158,-0.011525577865540981,-0.027992913499474525,0.5619621872901917,"7",0.5471637,0,0
"1970-01-01","01-00",0.0,0.0,-0.186,-0.01138646062463522,-0.02808186784386635,0.5587806701660156,"7",0.55491495,0,0
"1970-01-01","01-00",0.0,0.0,-0.163,-0.01147735957056284,-0.028060289099812508,0.5568370819091797,"7",0.5410439,0,0
"1970-01-01","01-00",0.0,0.0,-0.163,-0.01147735957056284,-0.028060289099812508,0.5568370819091797,"7",0.5368245,0,0
"1970-01-01","01-00",0.0,0.0,-0.339,-0.01162687223404646,-0.028144322335720062,0.5532984733581543,"7",0.5286647,0,0
"1970-01-01","01-00",0.0,0.0,-0.322,-0.011781394481658936,-0.028269464150071144,0.551115870475769,"7",0.5227489,0,0
"1970-01-01","01-00",0.0,0.0,-0.322,-0.01150691881775856,-0.027834082022309303,0.5494083762168884,"7",0.5551002,0,0
"1970-01-01","01-00",0.0,0.0,-0.322,-0.01150691881775856,-0.027834082022309303,0.5494083762168884,"7",0.5325424,0,0
"1970-01-01","01-00",0.0,0.0,-0.655,-0.01150691881775856,-0.027834082022309303,0.5494083762168884,"7",0.5170105,0,0
"1970-01-01","01-00",0.0,0.0,-0.655,-0.01150691881775856,-0.027834082022309303,0.5494083762168884,"7",0.5286341,0,0
"1970-01-01","01-00",0.0,0.0,-0.655,-0.01150691881775856,-0.027834082022309303,0.5494083762168884,"7",0.49127397,0,0
"1970-01-01","01-00",0.0,0.0,-0.655,-0.01150691881775856,-0.027834082022309303,0.5494083762168884,"J",0.5002503,0,0
"1970-01-01","01-00",0.0,0.0,-0.621,-0.006925501395016909,-0.027641162276268005,0.49368739128112793,"7",0.9644547,0,0
"1970-01-01","01-00",0.0,0.0,-0.672,0.14784418046474457,-0.030425261706113815,0.6369031667709351,"7",0.9668046,0,0
"1970-01-01","01-00",0.0,0.0,-0.548,0.5935564637184143,-0.06236293539404869,0.7165457606315613,"7",0.9203767,0,0
"1970-01-01","01-00",0.0,0.0,-0.548,0.5935564637184143,-0.06236293539404869,0.7165457606315613,"7",0.9446152,0,0
"1970-01-01","01-00",0.0,0.0,-0.819,0.7398087978363037,-0.12387009710073471,0.8231196999549866,"7",0.9729719,0,0
"1970-01-01","01-00",0.0,0.0,-0.819,0.7398087978363037,-0.12387009710073471,0.8231196999549866,"7",0.97565436,0,0
"1970-01-01","01-00",0.0,0.0,-0.819,0.7398087978363037,-0.12387009710073471,0.8231196999549866,"7",0.95282006,0,0
"1970-01-01","01-00",0.0,0.0,-0.785,0.6258378624916077,-0.14906512200832367,0.8004471063613892,"7",0.9113275,0,0
"1970-01-01","01-00",0.0,0.0,-0.853,0.03417203575372696,-0.2156171202659607,0.5772950649261475,"7",0.9088238,0,0
"1970-01-01","01-00",0.0,0.0,-0.819,-0.1025291234254837,-0.09003033488988876,0.43377038836479187,"7",0.99257326,0,0
"1970-01-01","01-00",0.0,0.0,-0.785,-0.338060200214386,0.07218898087739944,0.35585102438926697,"7",0.5304838,0,0
"1970-01-01","01-00",0.0,0.0,-0.904,-0.5024145841598511,0.11960386484861374,0.30239084362983704,"7",0.8041384,0,0
"1970-01-01","01-00",0.0,0.0,-0.904,-0.5024145841598511,0.11960386484861374,0.30239084362983704,"7",0.59580916,0,0
"1970-01-01","01-00",0.0,0.0,-0.791,-0.742207944393158,0.17653673887252808,0.2330162674188614,"7",0.7595355,0,0
"1970-01-01","01-00",0.0,0.0,-0.791,-0.7299705743789673,0.177399143576622,0.23942948877811432,"7",0.74904054,0,0
"1970-01-01","01-00",0.0,0.0,-0.921,-0.7299705743789673,0.177399143576622,0.23942948877811432,"7",0.88250035,0,0
"1970-01-01","01-00",0.0,0.0,-1.051,-0.018628105521202087,0.09856127947568893,0.42749541997909546,"J",0.6218804,0,0
"1970-01-01","01-00",0.0,0.0,-0.983,-0.018628105521202087,0.09856127947568893,0.42749541997909546,"J",0.6627469,0,0
"1970-01-01","01-00",0.0,0.0,-0.791,-0.07044999301433563,-0.11839048564434052,0.6028338670730591,"7",0.7573704,0,0
"1970-01-01","01-00",0.0,0.0,-0.627,-0.08915172517299652,-0.08305975794792175,0.6789131760597229,"7",0.8186062,0,0
"1970-01-01","01-00",0.0,0.0,-0.627,-0.08915172517299652,-0.08305975794792175,0.6789131760597229,"7",0.88453376,0,0
"1970-01-01","01-00",0.0,0.0,-0.678,-0.10666629672050476,0.13357895612716675,0.6387670040130615,"7",0.68777066,0,0
"1970-01-01","01-00",0.0,0.0,-0.672,-0.11984041333198547,0.3074173629283905,0.5780965089797974,"7",0.4978862,0,0
"1970-01-01","01-00",0.0,0.0,-0.762,-0.08613070100545883,0.3358118534088135,0.554632842540741,"7",0.6503242,0,0
"1970-01-01","01-00",0.0,0.0,-0.683,-0.0700058564543724,0.3528730571269989,0.565578043460846,"7",0.674646,0,0
"1970-01-01","01-00",0.0,0.0,-0.683,-0.0700058564543724,0.3528730571269989,0.565578043460846,"7",0.7209174,0,0
"1970-01-01","01-00",0.0,0.0,-0.757,-0.0700058564543724,0.3528730571269989,0.565578043460846,"7",0.80851346,0,0
"1970-01-01","01-00",0.0,0.0,-0.87,-0.010848318226635456,-0.17506356537342072,0.7895715236663818,"7",0.8224791,0,0
"1970-01-01","01-00",0.0,0.0,-0.678,-0.010848318226635456,-0.17506356537342072,0.7895715236663818,"7",0.77656144,0,0
"1970-01-01","01-00",0.0,0.0,-0.678,0.07024115324020386,-0.29913878440856934,0.8081223964691162,"7",0.73291713,0,0
"1970-01-01","01-00",0.0,0.0,-0.892,0.08661472797393799,-0.38594603538513184,0.7639676928520203,"7",0.7541554,0,0
"1970-01-01","01-00",0.0,0.0,-0.779,0.11254887282848358,-0.30550429224967957,0.7279859185218811,"7",0.6955786,0,0
"1970-01-01","01-00",0.0,0.0,-0.74,0.114249587059021,-0.06678506731987,0.7226362228393555,"7",0.6802448,0,0
"1970-01-01","01-00",0.0,0.0,-0.921,0.114249587059021,-0.06678506731987,0.7226362228393555,"7",0.7061185,0,0
"1970-01-01","01-00",0.0,0.0,-0.921,0.11002656072378159,0.09835327416658401,0.7119052410125732,"7",0.7278323,0,0
"1970-01-01","01-00",0.0,0.0,-0.859,0.08392009139060974,0.10362556576728821,0.6937421560287476,"7",0.8000273,0,0
"1970-01-01","01-00",0.0,0.0,-0.847,0.06357642263174057,0.05783703923225403,0.686708390712738,"7",0.7964039,0,0
"1970-01-01","01-00",0.0,0.0,-0.813,0.05139382556080818,0.028505975380539894,0.6838157176971436,"7",0.8728649,0,0
"1970-01-01","01-00",0.0,0.0,-0.932,0.044417236000299454,0.008402158506214619,0.6831947565078735,"7",0.9182833,0,0
"1970-01-01","01-00",0.0,0.0,-0.757,0.03493824601173401,-0.024835918098688126,0.685477614402771,"7",0.9639822,0,0
"1970-01-01","01-00",0.0,0.0,-0.864,0.03427736833691597,-0.029869986698031425,0.6874061822891235,"7",0.9638123,0,0
"1970-01-01","01-00",0.0,0.0,-0.909,0.03536437079310417,-0.03026420995593071,0.6899042725563049,"7",0.96009934,0,0
"1970-01-01","01-00",0.0,0.0,-0.74,0.03582102432847023,-0.029250318184494972,0.692726731300354,"7",0.9075169,0,0
"1970-01-01","01-00",0.0,0.0,-0.859,0.034291625022888184,-0.025175239890813828,0.6959259510040283,"7",0.407886,0,0
"1970-01-01","01-00",0.0,0.0,-0.909,0.0325804241001606,-0.019178450107574463,0.6976736783981323,"7",0.602029,0,0
"1970-01-01","01-00",0.0,0.0,-0.734,0.031505145132541656,-0.014365103095769882,0.6980052590370178,"7",0.5587931,0,0
"1970-01-01","01-00",0.0,0.0,-0.762,0.029373347759246826,-0.005475190933793783,0.6964739561080933,"7",0.57336795,0,0
"1970-01-01","01-00",0.0,0.0,-0.757,0.02865169756114483,-0.0022600782103836536,0.694331705570221,"7",0.6414366,0,0
"1970-01-01","01-00",0.0,0.0,-0.881,0.02865169756114483,-0.0022600782103836536,0.694331705570221,"7",0.76935434,0,0
"1970-01-01","01-00",0.0,0.0,-1.079,0.027486898005008698,0.002874004887416959,0.6897728443145752,"7",0.88758177,0,0
"1970-01-01","01-00",0.0,0.0,-0.791,0.027007393538951874,0.0043917205184698105,0.6874570846557617,"7",0.91998214,0,0
"1970-01-01","01-00",0.0,0.0,-0.825,0.026726549491286278,0.005149255972355604,0.684955894947052,"7",0.9496643,0,0
"1970-01-01","01-00",0.0,0.0,-0.825,0.026726549491286278,0.005149255972355604,0.684955894947052,"7",0.9905759,0,0
"1970-01-01","01-00",0.0,0.0,-0.949,0.02688353881239891,0.004763583652675152,0.6796829700469971,"7",0.99451303,0,0
"1970-01-01","01-00",0.0,0.0,-0.972,0.026949869468808174,0.004297046922147274,0.6779177784919739,"7",0.6105262,0,0
"1970-01-01","01-00",0.0,0.0,-0.808,0.027371307834982872,0.0027685181703418493,0.6761561632156372,"7",0.5973412,0,0
"1970-01-01","01-00",0.0,0.0,-0.921,0.027564972639083862,0.0019432975677773356,0.6756600141525269,"7",0.7876591,0,0
